[
  {
    "name": "Alison",
    "lat": 40.7270738,
    "lng": -73.9843027
  },
  {
    "name": "JOJU - East Village",
    "lat": 40.729008500000006,
    "lng": -73.98813919999999
  },
  {
    "name": "KENKA",
    "lat": 40.7291388,
    "lng": -73.9884654
  },
  {
    "name": "Cafe Mogador",
    "lat": 40.7274314,
    "lng": -73.98431149999999
  },
  {
    "name": "Pizza Studio Tamaki",
    "lat": 40.7269085,
    "lng": -73.98334729999999
  },
  {
    "name": "Crispiano",
    "lat": 40.726772499999996,
    "lng": -73.98358209999999
  },
  {
    "name": "Nan Xiang Soup Dumplings - East Village",
    "lat": 40.729312,
    "lng": -73.9888568
  },
  {
    "name": "Loong Noodles",
    "lat": 40.7287947,
    "lng": -73.98861520000001
  },
  {
    "name": "Soothr",
    "lat": 40.7323017,
    "lng": -73.9873417
  },
  {
    "name": "Spot Dessert Bar East Village",
    "lat": 40.729397500000005,
    "lng": -73.988927
  },
  {
    "name": "Caf\u00e9 Maud",
    "lat": 40.7286727,
    "lng": -73.9873887
  },
  {
    "name": "CHELI MANHATTAN \u6d59\u91cc",
    "lat": 40.729186999999996,
    "lng": -73.988711
  },
  {
    "name": "Empellon Al Pastor",
    "lat": 40.7267077,
    "lng": -73.9834983
  },
  {
    "name": "Mokyo",
    "lat": 40.7271382,
    "lng": -73.9839549
  },
  {
    "name": "The Rhymers' Club",
    "lat": 40.7285774,
    "lng": -73.9872948
  },
  {
    "name": "Hanoi House",
    "lat": 40.7270085,
    "lng": -73.9835497
  },
  {
    "name": "886",
    "lat": 40.7287968,
    "lng": -73.9887127
  },
  {
    "name": "Baohaus",
    "lat": 40.727470499999995,
    "lng": -73.9845869
  },
  {
    "name": "Little Kirin",
    "lat": 40.7278725,
    "lng": -73.9854694
  },
  {
    "name": "Kimura",
    "lat": 40.7290321,
    "lng": -73.9882174
  },
  {
    "name": "Dumpling N\u2019 Dips",
    "lat": 40.7294544,
    "lng": -73.9893159
  },
  {
    "name": "Udon St Marks",
    "lat": 40.7293784,
    "lng": -73.9890747
  },
  {
    "name": "Thursday Kitchen | Korean",
    "lat": 40.727565999999996,
    "lng": -73.98380499999999
  },
  {
    "name": "Anytime Street",
    "lat": 40.7287257,
    "lng": -73.98830339999999
  },
  {
    "name": "Crif Dogs",
    "lat": 40.7270598,
    "lng": -73.98379969999999
  },
  {
    "name": "Yakitori Taisho",
    "lat": 40.729428299999995,
    "lng": -73.9891322
  },
  {
    "name": "Mountain House East Village",
    "lat": 40.7291176,
    "lng": -73.9885834
  },
  {
    "name": "Mamoun's Falafel",
    "lat": 40.728812999999995,
    "lng": -73.988495
  },
  {
    "name": "Cello's Pizzeria",
    "lat": 40.7286439,
    "lng": -73.9881729
  },
  {
    "name": "Butter Smashburgers",
    "lat": 40.7293302,
    "lng": -73.9887634
  },
  {
    "name": "Birria LES",
    "lat": 40.7287257,
    "lng": -73.98830339999999
  },
  {
    "name": "The Bao",
    "lat": 40.7294074,
    "lng": -73.9889097
  },
  {
    "name": "Kyuubi Sushi Omakase",
    "lat": 40.7271611,
    "lng": -73.9846307
  },
  {
    "name": "Klong",
    "lat": 40.7294542,
    "lng": -73.9892527
  },
  {
    "name": "Veselka",
    "lat": 40.729015499999996,
    "lng": -73.9871139
  },
  {
    "name": "Bungalow",
    "lat": 40.7236675,
    "lng": -73.98797429999999
  },
  {
    "name": "The Smith",
    "lat": 40.731010399999995,
    "lng": -73.98858129999999
  },
  {
    "name": "La Palapa",
    "lat": 40.727868,
    "lng": -73.9856629
  },
  {
    "name": "Nudibranch",
    "lat": 40.7274205,
    "lng": -73.9857285
  },
  {
    "name": "M\u00e1L\u00e0 Project",
    "lat": 40.727144300000006,
    "lng": -73.9854189
  },
  {
    "name": "Electric Burrito",
    "lat": 40.7278725,
    "lng": -73.9854694
  },
  {
    "name": "The Office of Mr. Moto",
    "lat": 40.7268131,
    "lng": -73.984036
  },
  {
    "name": "Craft + Carry Saint Marks",
    "lat": 40.726934,
    "lng": -73.9841393
  },
  {
    "name": "Jazba",
    "lat": 40.7317071,
    "lng": -73.9858725
  },
  {
    "name": "Jiang's Kitchen \u7586\u6e56 - Halal Chinese Food",
    "lat": 40.7281888,
    "lng": -73.9860631
  },
  {
    "name": "ChaHalo \u8336\u8bdd\u5f04 - East Village",
    "lat": 40.729132799999995,
    "lng": -73.9886384
  },
  {
    "name": "Dumpling Man",
    "lat": 40.727235199999996,
    "lng": -73.9847297
  },
  {
    "name": "Cath\u00e9drale Restaurant",
    "lat": 40.731533899999995,
    "lng": -73.98919750000002
  },
  {
    "name": "Vegan Grill",
    "lat": 40.7279361,
    "lng": -73.9866708
  },
  {
    "name": "Osakana East Village",
    "lat": 40.728268299999996,
    "lng": -73.9872465
  },
  {
    "name": "Benemon",
    "lat": 40.7255384,
    "lng": -73.988357
  },
  {
    "name": "Xi'an Famous Foods",
    "lat": 40.7285164,
    "lng": -73.9880843
  },
  {
    "name": "Moko",
    "lat": 40.7287621,
    "lng": -73.987158
  },
  {
    "name": "Sushi Mumi",
    "lat": 40.726680099999996,
    "lng": -73.9835791
  }
]